{
"type": "FeatureCollection",
"name": "Existing Embu Projects",
"crs": { "type": "name", "properties": { "name": "urn:ogc:def:crs:OGC:1.3:CRS84" } },
"features": [
{ "type": "Feature", "properties": { "Id": 0, "name": "Wadiki", "type": "Borehole", "nametype": "Wadiki Borehole" }, "geometry": { "type": "Point", "coordinates": [ 37.319286960319133, -0.809089745764751 ] } },
{ "type": "Feature", "properties": { "Id": 0, "name": "Gikumini", "type": "Borehole", "nametype": "Gikumini  Borehole" }, "geometry": { "type": "Point", "coordinates": [ 37.324875917951779, -0.809384652679863 ] } },
{ "type": "Feature", "properties": { "Id": 0, "name": "Gitaraka", "type": "Borehole", "nametype": "Gitaraka Borehole" }, "geometry": { "type": "Point", "coordinates": [ 37.351255298158407, -0.821837945692294 ] } },
{ "type": "Feature", "properties": { "Id": 0, "name": "Itangini", "type": "Borehole", "nametype": "Itangini Borehole" }, "geometry": { "type": "Point", "coordinates": [ 37.366230358945351, -0.822083419943498 ] } },
{ "type": "Feature", "properties": { "Id": 0, "name": "Wango", "type": "Borehole", "nametype": "Wango Borehole" }, "geometry": { "type": "Point", "coordinates": [ 37.37146945537944, -0.797918341186254 ] } },
{ "type": "Feature", "properties": { "Id": 0, "name": "Kaluluine", "type": "Borehole", "nametype": "Kaluluine Borehole" }, "geometry": { "type": "Point", "coordinates": [ 37.388020422655863, -0.786865541716745 ] } },
{ "type": "Feature", "properties": { "Id": 0, "name": "Ndune", "type": "Borehole", "nametype": "Ndune Borehole" }, "geometry": { "type": "Point", "coordinates": [ 37.523012145850807, -0.824694738867893 ] } },
{ "type": "Feature", "properties": { "Id": 0, "name": "Rogogwe", "type": "Borehole", "nametype": "Rogogwe Borehole" }, "geometry": { "type": "Point", "coordinates": [ 37.621875658341928, -0.734451797563472 ] } },
{ "type": "Feature", "properties": { "Id": 0, "name": "Kanyonga", "type": "borehole", "nametype": "Kanyonga Borehole" }, "geometry": { "type": "Point", "coordinates": [ 37.612054766427264, -0.780814318144084 ] } },
{ "type": "Feature", "properties": { "Id": 0, "name": "Kanjari", "type": "Rock Catchment", "nametype": "Kanjari Rock Catchment" }, "geometry": { "type": "Point", "coordinates": [ 37.628826973774565, -0.674028687186285 ] } },
{ "type": "Feature", "properties": { "Id": 0, "name": "Gitarari", "type": "Borehole", "nametype": "Gitarari Borehole" }, "geometry": { "type": "Point", "coordinates": [ 37.67020772666919, -0.678593734857193 ] } },
{ "type": "Feature", "properties": { "Id": 0, "name": "Irabari", "type": "Borehole", "nametype": "Irabari Borehole" }, "geometry": { "type": "Point", "coordinates": [ 37.685747965138162, -0.699823972236754 ] } },
{ "type": "Feature", "properties": { "Id": 0, "name": "Ndithini", "type": "Borehole", "nametype": "Ndithini Borehole" }, "geometry": { "type": "Point", "coordinates": [ 37.82930286094863, -0.718680445017819 ] } },
{ "type": "Feature", "properties": { "Id": 0, "name": "Mariari", "type": "Dam", "nametype": "Mariari Dam" }, "geometry": { "type": "Point", "coordinates": [ 37.800936006202285, -0.706502842625879 ] } },
{ "type": "Feature", "properties": { "Id": 0, "name": "Kivue", "type": "Borehole", "nametype": "Kivue Borehole" }, "geometry": { "type": "Point", "coordinates": [ 37.741525948025249, -0.609203896932782 ] } },
{ "type": "Feature", "properties": { "Id": 0, "name": "Uvarire", "type": "Borehole", "nametype": "Uvarire Borehole" }, "geometry": { "type": "Point", "coordinates": [ 37.735598690042004, -0.53621038388196 ] } },
{ "type": "Feature", "properties": { "Id": 0, "name": "Kanyiriri", "type": "Borehole", "nametype": "Kanyiriri Borehole" }, "geometry": { "type": "Point", "coordinates": [ 37.648588269010787, -0.553601477052862 ] } },
{ "type": "Feature", "properties": { "Id": 0, "name": "Kasafari", "type": "Borehole", "nametype": "Kasafari Borehole" }, "geometry": { "type": "Point", "coordinates": [ 37.693186782000126, -0.490118302999972 ] } },
{ "type": "Feature", "properties": { "Id": 0, "name": "Runyenjes TVET", "type": "Borehole", "nametype": "Runyenjes TVET Borehole" }, "geometry": { "type": "Point", "coordinates": [ 37.657160813511702, -0.484203262473189 ] } },
{ "type": "Feature", "properties": { "Id": 0, "name": "Kiganari", "type": "Borehole", "nametype": "Kiganari Borehole" }, "geometry": { "type": "Point", "coordinates": [ 37.683556793507812, -0.433952625903662 ] } },
{ "type": "Feature", "properties": { "Id": 0, "name": "St Agnes", "type": "Borehole", "nametype": "St Agnes Borehole" }, "geometry": { "type": "Point", "coordinates": [ 37.649328329189586, -0.418152074915722 ] } },
{ "type": "Feature", "properties": { "Id": 0, "name": "Gichegeri", "type": "Borehole", "nametype": "Gichegeri Borehole" }, "geometry": { "type": "Point", "coordinates": [ 37.494179458869283, -0.518774677374596 ] } },
{ "type": "Feature", "properties": { "Id": 0, "name": "Gikingire", "type": "Borehole", "nametype": "Gikingire Borehole" }, "geometry": { "type": "Point", "coordinates": [ 37.496250706544437, -0.538660646316287 ] } },
{ "type": "Feature", "properties": { "Id": 0, "name": "Kambo", "type": "Borehole", "nametype": "Kambo Borehole" }, "geometry": { "type": "Point", "coordinates": [ 37.510621859548884, -0.546393320598195 ] } },
{ "type": "Feature", "properties": { "Id": 0, "name": "Kimangaru", "type": "Borehole", "nametype": "Kimangaru Borehole" }, "geometry": { "type": "Point", "coordinates": [ 37.528877516750704, -0.546972163843686 ] } },
{ "type": "Feature", "properties": { "Id": 0, "name": "Mukui", "type": "Water Supply", "nametype": "Mukui water supply" }, "geometry": { "type": "Point", "coordinates": [ 37.480784270566247, -0.633673673439544 ] } }
]
}
